,City,Country,Latitude,Longitude,Max Temp,Humidity,Cloudiness,Wind Speed,Date
0,jamestown,US,42.1,-79.24,77.0,60,40,6.93,1596143156
1,lhokseumawe,ID,5.18,97.15,77.81,82,100,3.42,1596143156
2,avarua,CK,-21.21,-159.78,69.8,64,100,5.82,1596143156
3,albany,US,42.6,-73.97,80.01,51,93,6.44,1596143156
4,sumbe,AO,-11.21,13.84,69.51,88,1,9.42,1596143047
5,nikolskoye,RU,59.7,30.79,59.0,87,75,2.24,1596143157
6,mersing,MY,2.43,103.84,77.0,100,100,5.82,1596143157
7,diffa,NE,13.32,12.61,81.03,66,35,12.71,1596143157
8,rikitea,PF,-23.12,-134.97,72.77,87,97,13.58,1596143157
9,ilulissat,GL,69.22,-51.1,48.2,61,40,4.7,1596143157
10,yekaterinoslavka,RU,50.37,129.11,67.15,93,91,3.98,1596143157
11,atuona,PF,-9.8,-139.03,79.16,76,7,18.61,1596143157
12,guerrero negro,MX,27.98,-114.06,82.94,46,3,13.58,1596143135
13,kaitangata,NZ,-46.28,169.85,48.0,77,98,1.99,1596143157
14,hokitika,NZ,-42.72,170.97,52.09,71,99,4.54,1596143157
15,takoradi,GH,4.88,-1.76,74.53,86,0,8.72,1596142860
16,palu,ID,-0.89,119.87,75.52,82,97,1.43,1596143158
17,faanui,PF,-16.48,-151.75,79.45,80,68,14.25,1596143158
18,avera,US,33.19,-82.53,87.8,94,90,6.93,1596143158
19,castro,BR,-24.79,-50.01,51.22,83,72,9.48,1596143158
20,ribeira grande,PT,38.52,-28.7,75.2,60,75,4.7,1596143158
21,bluff,NZ,-46.6,168.33,47.44,90,100,6.67,1596143132
22,hithadhoo,MV,-0.6,73.08,82.87,77,95,8.14,1596143132
23,kapaa,US,22.08,-159.32,82.4,69,75,16.11,1596143158
24,gizo,SB,-8.1,156.84,81.95,81,100,14.56,1596143158
25,punta arenas,CL,-53.15,-70.92,39.2,80,40,11.41,1596143158
26,mareeba,AU,-17.0,145.43,62.6,77,44,10.29,1596143158
27,itarema,BR,-2.92,-39.92,78.91,73,78,14.67,1596143158
28,khatanga,RU,71.97,102.5,59.29,59,34,8.68,1596143159
29,buraydah,SA,26.33,43.98,102.2,24,36,4.7,1596143159
30,hermanus,ZA,-34.42,19.23,46.0,94,0,4.76,1596143159
31,taoudenni,ML,22.68,-3.98,92.35,38,97,21.41,1596143159
32,nikolayevsk-na-amure,RU,53.14,140.73,59.7,82,100,4.25,1596143159
33,baruun-urt,MN,46.68,113.28,58.91,79,0,5.44,1596143159
34,busselton,AU,-33.65,115.33,48.99,84,36,9.98,1596143025
35,butaritari,KI,3.07,172.79,81.3,76,75,4.72,1596143159
36,mataura,NZ,-46.19,168.86,45.75,86,100,1.86,1596143132
37,padang,ID,-0.95,100.35,73.4,94,20,2.24,1596143159
38,corinto,GR,37.94,22.96,82.0,36,0,1.01,1596143159
39,cape town,ZA,-33.93,18.42,54.0,87,0,3.36,1596142883
40,nioro,GM,13.35,-15.75,76.46,91,100,5.44,1596143159
41,ushuaia,AR,-54.8,-68.3,37.4,69,75,6.93,1596143132
42,denpasar,ID,-8.65,115.22,77.0,100,20,12.75,1596142997
43,iqaluit,CA,63.75,-68.51,55.4,71,75,6.93,1596143160
44,la ronge,CA,55.1,-105.28,77.0,73,75,5.82,1596143160
45,olinda,BR,-8.01,-34.86,78.8,69,40,14.99,1596143160
46,atasu,KZ,48.68,71.64,64.98,53,100,1.72,1596143160
47,sao jose da coroa grande,BR,-8.9,-35.15,74.66,80,11,13.24,1596143160
48,port hardy,CA,50.7,-127.42,64.4,68,20,3.36,1596143160
49,mar del plata,AR,-38.0,-57.56,52.0,57,100,6.93,1596143161
50,bitung,ID,1.45,125.18,77.0,88,20,2.24,1596143161
51,chuy,UY,-33.7,-53.46,46.45,83,0,7.11,1596143161
52,bethel,US,41.37,-73.41,84.99,78,1,6.93,1596143161
53,dawlatabad,AF,36.41,64.91,76.75,19,0,3.74,1596143161
54,mitsamiouli,KM,-11.38,43.28,77.05,81,34,18.23,1596143161
55,mount isa,AU,-20.73,139.5,59.0,30,0,9.17,1596143161
56,nuuk,GL,64.18,-51.72,46.4,81,75,4.7,1596142982
57,barrow,US,71.29,-156.79,37.4,93,90,6.93,1596143162
58,crossford,GB,56.05,-3.5,59.0,100,100,4.7,1596143162
59,qandala,SO,11.47,49.87,90.57,54,94,3.38,1596143162
60,georgetown,MY,5.41,100.34,78.8,94,40,1.12,1596143107
61,khorramshahr,IR,30.44,48.17,104.0,28,0,9.17,1596143162
62,tuktoyaktuk,CA,69.45,-133.04,62.6,77,75,9.17,1596142986
63,thinadhoo,MV,0.53,72.93,82.83,76,66,9.82,1596143162
64,port elizabeth,ZA,-33.92,25.57,53.6,93,4,6.93,1596143162
65,leningradskiy,RU,69.38,178.42,41.14,82,100,15.75,1596143162
66,barcelos,PT,41.54,-8.62,69.01,93,75,2.24,1596143014
67,hobart,AU,-42.88,147.33,48.0,75,75,4.7,1596143162
68,dikson,RU,73.51,80.55,52.16,76,100,7.81,1596143163
69,vao,NC,-22.67,167.48,72.61,89,31,19.75,1596143163
70,ketchikan,US,55.34,-131.65,64.4,77,1,9.17,1596143163
71,new norfolk,AU,-42.78,147.06,48.0,85,100,1.99,1596143163
72,galion,US,40.73,-82.79,80.01,69,20,4.7,1596143163
73,inhambane,MZ,-23.86,35.38,63.64,77,0,6.08,1596143163
74,mayor pablo lagerenza,PY,-19.93,-60.77,73.71,34,2,4.36,1596143163
75,hamilton,US,39.18,-84.53,71.01,88,90,3.36,1596143164
76,labuhan,ID,-6.88,112.21,72.43,82,24,8.61,1596143164
77,tabas,IR,33.6,56.92,95.0,19,0,2.24,1596143164
78,talara,PE,-4.58,-81.27,64.87,78,48,15.17,1596143164
79,port macquarie,AU,-31.43,152.92,54.0,85,8,1.01,1596143164
80,esperance,AU,-33.87,121.9,48.2,100,75,4.7,1596143164
81,kensington,AU,-33.92,151.22,50.0,78,0,8.99,1596143164
82,saint-philippe,RE,-21.36,55.77,71.6,73,90,4.7,1596143132
83,hofn,IS,64.25,-15.21,54.16,82,85,8.08,1596142984
84,liverpool,GB,53.41,-2.98,72.0,72,65,8.05,1596143058
85,novoagansk,RU,61.94,76.66,50.54,82,15,4.29,1596143165
86,ancud,CL,-41.87,-73.82,50.0,93,75,12.75,1596143165
87,manokwari,ID,-0.87,134.08,78.64,77,43,4.74,1596143165
88,saldanha,ZA,-33.01,17.94,51.8,87,0,5.82,1596143165
89,turkistan,KZ,43.0,68.0,78.24,28,74,17.09,1596143165
90,uturoa,PF,-16.73,-151.43,80.19,78,77,14.67,1596143165
91,port alfred,ZA,-33.59,26.89,57.15,85,30,8.01,1596143165
92,dingle,PH,11.0,122.67,76.95,88,100,5.82,1596143166
93,baculin,PH,7.45,126.58,78.06,80,100,6.62,1596143166
94,ternate,ID,0.8,127.4,79.74,78,94,5.66,1596143166
95,gamba,GA,-2.65,10.0,72.05,81,96,7.47,1596143166
96,ruwi,OM,23.6,58.55,93.2,63,3,5.82,1596143166
97,honiara,SB,-9.43,159.95,75.2,94,40,2.24,1596143007
98,mackay,AU,-21.15,149.2,48.0,87,0,6.93,1596143166
99,kavieng,PG,-2.57,150.8,82.99,75,100,6.51,1596143166
100,saint-joseph,RE,-21.37,55.62,71.6,73,90,4.7,1596143166
101,morondava,MG,-20.28,44.28,67.6,76,0,12.15,1596143167
102,lasa,IT,46.62,10.7,69.8,83,90,27.51,1596143167
103,geraldton,AU,-28.77,114.6,46.4,93,86,8.05,1596143167
104,atbasar,KZ,51.8,68.33,65.71,63,49,5.26,1596143167
105,fairbanks,US,64.84,-147.72,72.0,68,75,3.36,1596143133
106,presidencia roque saenz pena,AR,-26.79,-60.44,59.74,42,71,5.03,1596143167
107,half moon bay,US,37.46,-122.43,73.0,82,75,9.17,1596143167
108,chara,RU,56.91,118.26,59.22,85,94,1.59,1596143167
109,lebu,CL,-37.62,-73.65,51.22,89,98,14.34,1596143168
110,santa maria,BR,-29.68,-53.81,57.2,62,7,14.99,1596142999
111,jalu,LY,29.03,21.55,83.1,43,0,13.6,1596143168
112,cabo san lucas,MX,22.89,-109.91,89.6,58,5,14.99,1596143168
113,kamiiso,JP,41.82,140.65,68.97,86,83,0.94,1596143168
114,tasiilaq,GL,65.61,-37.64,48.2,66,99,5.82,1596142984
115,carnarvon,AU,-24.87,113.63,62.6,100,0,12.75,1596143168
116,solnechnyy,RU,50.72,136.63,68.38,94,100,3.65,1596143168
117,codrington,AU,-38.27,141.97,41.36,92,58,8.75,1596143168
118,praia,CV,14.92,-23.51,78.8,74,75,13.87,1596143042
119,nanortalik,GL,60.14,-45.24,43.52,86,100,11.48,1596143169
120,hilo,US,19.73,-155.09,82.4,54,90,8.05,1596143169
121,iralaya,HN,15.0,-83.23,87.8,74,40,11.41,1596143169
122,havelock,US,34.88,-76.9,87.8,70,75,14.99,1596143169
123,ulundi,ZA,-28.34,31.42,53.37,81,0,3.96,1596142926
124,nalut,LY,30.33,10.85,83.12,22,0,14.2,1596143169
125,chokurdakh,RU,70.63,147.92,44.98,81,82,10.38,1596143169
126,gigmoto,PH,13.78,124.39,81.41,80,100,6.22,1596143169
127,carutapera,BR,-1.2,-46.02,76.95,89,84,7.56,1596143169
128,mfou,CM,3.72,11.64,69.8,100,75,4.7,1596143169
129,churachandpur,IN,24.33,93.67,67.35,97,98,1.86,1596143170
130,sheltozero,RU,61.37,35.37,57.29,80,0,11.77,1596143170
131,juegang,CN,32.32,121.19,79.18,91,100,14.0,1596143170
132,kodiak,US,57.79,-152.41,60.8,67,40,12.75,1596143170
133,atar,MR,20.52,-13.05,92.52,36,100,4.03,1596143170
134,chapais,CA,49.78,-74.85,64.4,93,75,5.82,1596143170
135,cayenne,GF,4.93,-52.33,87.8,66,20,6.93,1596143170
136,honningsvag,NO,70.98,25.97,55.4,76,20,18.34,1596143170
137,bandarbeyla,SO,9.49,50.81,78.84,80,24,30.96,1596143170
138,pangody,RU,65.85,74.49,50.88,78,57,4.61,1596143171
139,belyy yar,RU,53.6,91.39,60.8,93,100,4.47,1596143171
140,sept-iles,CA,50.2,-66.38,63.0,93,90,11.41,1596143018
141,hecun,CN,36.53,114.11,74.64,86,0,0.58,1596143171
142,loksa,EE,59.58,25.72,61.0,93,5,6.93,1596143171
143,kipini,KE,-2.53,40.53,76.35,87,2,14.43,1596143171
144,shenjiamen,CN,29.96,122.3,80.24,92,100,11.01,1596143171
145,mrakovo,RU,52.72,56.62,61.27,71,45,4.76,1596143171
146,lorengau,PG,-2.02,147.27,83.25,69,100,3.87,1596143172
147,stornoway,GB,58.21,-6.39,57.2,100,100,12.75,1596142954
148,north bend,US,43.41,-124.22,82.0,82,75,13.87,1596143172
149,kloulklubed,PW,7.04,134.26,83.26,70,100,2.1,1596143172
150,sremska mitrovica,RS,44.98,19.61,77.0,72,0,2.93,1596143018
151,songjianghe,CN,42.19,127.48,61.5,97,100,5.77,1596143172
152,gat,IL,31.61,34.76,82.0,58,0,0.81,1596143172
153,hasaki,JP,35.73,140.83,72.0,100,75,7.36,1596143172
154,yellowknife,CA,62.46,-114.35,68.0,56,75,16.11,1596142983
155,marawi,PH,8.0,124.29,73.99,95,76,4.0,1596143172
156,tadine,NC,-21.55,167.88,74.05,85,21,14.36,1596143172
157,bad orb,DE,50.23,9.35,72.0,51,2,3.2,1596143173
158,assiniboia,CA,49.63,-105.98,92.16,25,0,12.95,1596143173
159,bengkulu,ID,-3.8,102.27,75.04,91,88,7.92,1596143173
160,saskylakh,RU,71.92,114.08,55.76,71,0,1.77,1596143173
161,sioux lookout,CA,50.1,-91.92,78.8,36,20,5.82,1596143173
162,sotouboua,TG,8.57,0.98,71.82,94,11,2.62,1596143173
163,narsaq,GL,60.92,-46.05,48.2,87,100,11.41,1596143173
164,redlands,US,34.06,-117.18,104.0,27,0,3.0,1596143173
165,pevek,RU,69.7,170.31,36.64,95,100,8.7,1596143173
166,biassono,IT,45.63,9.27,84.99,56,0,1.21,1596143173
167,bowen,AU,-20.02,148.23,61.0,87,0,4.7,1596143173
168,podosinovets,RU,60.28,47.07,56.07,95,4,8.08,1596143174
169,sabang,ID,5.89,95.32,83.8,71,100,20.83,1596143174
170,basco,PH,20.45,121.97,84.56,80,100,19.37,1596143174
171,flin flon,CA,54.77,-101.86,84.2,51,75,8.05,1596143174
172,ljungby,SE,56.83,13.94,55.0,100,100,11.41,1596143174
173,broome,US,42.25,-75.83,78.01,69,40,9.17,1596143174
174,plainview,US,40.78,-73.47,90.0,62,1,17.22,1596143174
175,kenai,US,60.55,-151.26,68.0,55,20,5.82,1596143174
176,souillac,MU,-20.52,57.52,69.8,88,40,3.36,1596143174
177,lufilufi,WS,-13.87,-171.6,75.0,94,22,8.01,1596143174
178,severo-kurilsk,RU,50.68,156.12,54.9,92,99,9.31,1596143132
179,thompson,CA,55.74,-97.86,82.4,45,75,6.93,1596143130
180,qaanaaq,GL,77.48,-69.36,43.39,61,4,4.68,1596143132
181,morgan city,US,29.7,-91.21,91.99,75,75,10.29,1596143175
182,nome,US,64.5,-165.41,54.0,100,90,12.75,1596143175
183,vestmannaeyjar,IS,63.44,-20.27,53.6,87,75,8.05,1596142984
184,gimli,CA,50.63,-96.99,86.0,63,1,4.0,1596143175
185,norman wells,CA,65.28,-126.83,71.6,56,75,12.75,1596143175
186,matara,LK,5.95,80.54,77.76,90,100,9.84,1596143175
187,provideniya,RU,64.38,-173.3,50.0,76,90,15.66,1596143175
188,mahebourg,MU,-20.41,57.7,69.8,88,40,3.36,1596143175
189,college,US,64.86,-147.8,72.0,68,75,3.36,1596143176
190,haines junction,CA,60.75,-137.51,74.52,40,0,8.57,1596143176
191,san cristobal,VE,7.77,-72.22,89.6,49,40,18.34,1596143176
192,cidreira,BR,-30.18,-50.21,55.13,76,0,12.66,1596143176
193,herat,AF,34.5,62.0,75.25,20,0,14.85,1596143013
194,ukiah,US,39.15,-123.21,96.01,22,1,7.34,1596143176
195,biak,ID,-0.91,122.88,75.72,89,98,7.34,1596143176
196,shimoda,JP,34.67,138.95,68.0,93,8,1.01,1596143177
197,charters towers,AU,-20.1,146.27,51.6,61,0,10.38,1596143177
198,saint george,US,37.1,-113.58,109.0,7,1,6.93,1596143126
199,fethiye,TR,36.62,29.12,78.8,83,0,2.24,1596143177
200,bredasdorp,ZA,-34.53,20.04,50.0,87,0,4.7,1596143177
201,te anau,NZ,-45.42,167.72,46.17,88,100,0.29,1596143177
202,puerto ayora,EC,-0.74,-90.35,77.0,61,40,16.11,1596143177
203,berezovyy,RU,51.67,135.7,67.1,88,96,5.21,1596143177
204,inuvik,CA,68.35,-133.72,69.8,52,40,11.41,1596142921
205,westlock,CA,54.15,-113.87,79.0,64,1,10.29,1596143061
206,coahuayana,MX,18.73,-103.68,78.8,83,75,17.22,1596143178
207,morros,BR,-9.45,-46.3,83.41,31,0,5.32,1596143178
208,baykit,RU,61.67,96.37,58.91,82,96,3.4,1596143178
209,darhan,MN,49.49,105.92,60.42,86,0,1.19,1596143178
210,vila,PT,42.03,-8.16,71.01,74,0,5.01,1596143178
211,alta floresta,BR,-9.88,-56.09,95.0,20,20,8.05,1596143178
212,kavaratti,IN,10.57,72.64,82.56,79,100,17.25,1596143178
213,koundara,GN,12.48,-13.3,73.67,97,100,3.49,1596143178
214,mount gambier,AU,-37.83,140.77,39.2,100,45,8.05,1596143178
215,pingzhuang,CN,42.04,119.29,73.53,65,97,4.05,1596143178
216,zhuanghe,CN,39.7,122.99,75.99,90,35,4.0,1596143179
217,impfondo,CG,1.64,18.07,74.3,78,11,2.35,1596143179
218,zabaykalsk,RU,49.63,117.32,62.11,89,77,2.8,1596143179
219,uglekamensk,RU,43.22,133.23,65.62,91,82,1.52,1596143179
220,gallup,US,35.53,-108.74,93.2,9,1,16.11,1596143179
221,adrar,MR,20.5,-10.07,95.95,28,25,5.32,1596143179
222,samarai,PG,-10.62,150.67,74.97,73,85,16.69,1596143179
223,fort nelson,CA,58.81,-122.7,77.0,41,20,8.05,1596142920
224,vaini,TO,-21.2,-175.2,69.8,77,40,10.29,1596143179
225,beloha,MG,-25.17,45.05,61.74,83,0,6.26,1596143179
226,viedma,AR,-40.81,-63.0,52.0,55,100,5.01,1596143074
227,todos santos,MX,23.45,-110.22,80.01,77,43,5.01,1596143180
228,jizan,SA,17.33,42.67,80.6,94,40,10.29,1596143180
229,torbay,CA,47.67,-52.73,60.01,100,90,6.93,1596143180
230,sorong,ID,-0.88,131.25,77.86,87,51,8.34,1596143110
231,campbell river,CA,50.02,-125.24,84.2,35,5,5.82,1596143180
232,porto novo,BJ,6.5,2.6,75.63,83,28,8.01,1596143044
233,kashi,CN,39.45,75.98,76.15,25,13,6.82,1596143180
234,huancavelica,PE,-12.77,-74.98,53.2,41,2,9.55,1596143180
235,saint anthony,US,45.02,-93.22,82.4,39,75,6.93,1596143180
236,koungheul,SN,13.98,-14.8,78.13,86,100,5.03,1596143181
237,fort frances,CA,48.6,-93.4,84.0,44,1,5.82,1596143136
238,prieska,ZA,-29.66,22.75,52.74,35,0,2.62,1596143181
239,nizhniy odes,RU,63.64,54.86,55.17,77,76,7.94,1596143181
240,luderitz,NA,-26.65,15.16,84.2,13,0,17.22,1596143181
241,nedjo,ET,9.5,35.5,58.71,96,100,0.94,1596143181
242,tigzirt,DZ,36.89,4.12,85.71,40,0,8.86,1596143181
243,murupara,NZ,-38.47,176.7,54.0,90,100,1.01,1596143181
244,sao joao da barra,BR,-21.64,-41.05,68.0,94,75,16.11,1596143181
245,nagapattinam,IN,10.77,79.83,82.81,75,41,10.36,1596143181
246,kruisfontein,ZA,-34.0,24.73,51.01,88,0,6.49,1596143132
247,gympie,AU,-26.19,152.66,54.0,75,0,1.99,1596143182
248,brae,GB,60.4,-1.35,51.8,87,100,6.93,1596143182
249,salalah,OM,17.02,54.09,82.4,94,75,3.36,1596143182
250,ayolas,PY,-27.4,-56.9,56.62,68,30,3.98,1596143182
251,korla,CN,41.76,86.15,80.01,56,0,1.99,1596143182
252,clyde river,CA,70.47,-68.59,37.4,100,90,19.46,1596143182
253,vila franca do campo,PT,37.72,-25.43,73.4,78,20,10.29,1596143182
254,paamiut,GL,61.99,-49.67,47.34,91,72,4.32,1596143182
255,arraial do cabo,BR,-22.97,-42.03,66.2,93,75,12.75,1596143155
256,talnakh,RU,69.49,88.4,59.0,67,87,11.18,1596143183
257,hovd,MN,48.01,91.64,56.3,50,95,6.71,1596143183
258,salo,IT,45.61,10.53,84.2,70,16,4.7,1596143183
259,zhezkazgan,KZ,47.8,67.71,72.73,39,100,8.39,1596143183
260,coihaique,CL,-45.58,-72.07,37.4,64,100,3.36,1596143183
261,cienfuegos,CU,22.15,-80.44,91.4,63,3,11.41,1596143183
262,sheksna,RU,59.21,38.51,53.6,93,20,4.47,1596143183
263,ahuimanu,US,21.44,-157.84,84.2,65,20,12.75,1596143183
264,talcahuano,CL,-36.72,-73.12,53.6,81,75,13.87,1596143183
265,san quintin,MX,30.48,-115.95,76.21,63,9,12.75,1596143184
266,aklavik,CA,68.22,-135.01,69.8,60,75,5.82,1596142922
267,am timan,TD,11.03,20.28,73.58,93,100,6.4,1596143184
268,arkansas city,US,37.06,-97.04,86.0,58,20,12.75,1596142970
269,bondoukou,CI,8.03,-2.8,72.88,86,41,2.21,1596143184
270,katsuura,JP,35.13,140.3,73.0,100,75,1.12,1596143184
271,demba,CD,-5.51,22.27,72.12,29,0,2.57,1596143184
272,necochea,AR,-38.55,-58.74,46.99,75,100,10.0,1596143184
273,isangel,VU,-19.55,169.27,75.2,78,13,5.82,1596143184
274,dalvik,IS,65.97,-18.53,53.6,76,5,10.29,1596143184
275,funadhoo,MV,6.15,73.27,82.2,81,53,18.34,1596143184
276,antofagasta,CL,-23.65,-70.4,57.2,71,75,11.41,1596143184
277,gorontalo,ID,0.54,123.06,75.33,91,93,6.31,1596143185
278,ewa beach,US,21.32,-158.01,84.2,51,40,13.87,1596143063
279,verkhoyansk,RU,67.54,133.38,50.76,66,0,3.87,1596143185
280,longyearbyen,SJ,78.22,15.64,50.0,81,20,5.82,1596143185
281,yar-sale,RU,66.83,70.83,48.88,85,0,4.61,1596143185
282,lucapa,AO,-8.42,20.74,68.41,27,0,3.27,1596143046
283,koson,UZ,39.04,65.58,78.8,31,48,4.7,1596143186
284,shingu,JP,33.73,135.98,74.01,90,0,3.51,1596143186
285,sulangan,PH,11.14,123.72,83.86,72,100,10.49,1596143186
286,arman,RU,59.7,150.17,55.51,55,8,14.54,1596143186
287,kysyl-syr,RU,63.9,122.76,54.95,77,0,3.6,1596143186
288,khash,IR,28.22,61.22,76.84,17,21,8.23,1596143186
289,botucatu,BR,-22.89,-48.45,56.77,79,19,12.73,1596143129
290,broken hill,AU,-31.95,141.43,41.0,86,0,1.12,1596143186
291,san patricio,MX,19.22,-104.7,89.6,75,40,11.41,1596143186
292,abu zabad,SD,12.35,29.25,78.55,68,12,8.46,1596143186
293,cherskiy,RU,68.75,161.3,47.25,70,95,9.35,1596143186
294,balaguer,ES,41.79,0.81,88.0,39,100,9.17,1596143187
295,bay roberts,CA,47.6,-53.26,62.01,100,99,1.01,1596143187
296,odessa,UA,46.48,30.73,80.6,54,73,2.24,1596142936
297,coquimbo,CL,-29.95,-71.34,66.2,48,18,5.82,1596143187
298,benghazi,LY,32.12,20.07,78.84,81,0,11.86,1596143187
299,mogadishu,SO,2.04,45.34,77.76,86,63,16.15,1596143058
300,road town,VG,18.42,-64.62,87.8,74,40,19.46,1596143187
301,lavrentiya,RU,65.58,-171.0,46.92,89,100,8.52,1596143187
302,altus,US,34.64,-99.33,100.0,41,1,16.11,1596143187
303,topchanchi,IN,23.9,86.2,82.54,74,100,3.4,1596143187
304,east london,ZA,-33.02,27.91,61.54,74,93,5.79,1596143187
305,teya,RU,60.38,92.63,56.5,91,99,2.8,1596143188
306,morar,IN,26.23,78.23,84.2,89,40,2.24,1596143188
307,ponta do sol,PT,32.67,-17.1,69.8,68,40,12.75,1596143188
308,paita,PE,-5.09,-81.11,66.34,72,53,18.07,1596143188
309,port-gentil,GA,-0.72,8.78,75.2,83,20,15.52,1596143188
310,huanren,CN,41.26,125.37,69.4,93,100,4.38,1596143188
311,saint-denis,FR,48.92,2.33,80.01,29,0,6.93,1596143189
312,evensk,RU,61.95,159.23,54.07,72,100,17.4,1596143189
313,bojnurd,IR,37.47,57.33,68.0,68,75,13.87,1596143189
314,homestead,US,25.47,-80.48,91.0,66,40,11.41,1596142931
315,ijuin,JP,31.62,130.4,75.43,89,16,2.3,1596143189
316,ixtapa,MX,20.7,-105.2,88.0,66,75,9.17,1596143119
317,sitka,US,57.05,-135.33,69.8,64,1,6.93,1596143189
318,lompoc,US,34.64,-120.46,72.0,64,3,13.87,1596143189
319,deputatskiy,RU,69.3,139.9,43.95,77,4,3.33,1596143189
320,fez,MA,34.04,-5.0,100.4,15,75,9.17,1596143190
321,taman,RU,45.21,36.72,68.0,88,20,4.47,1596143190
322,opuwo,NA,-18.06,13.84,60.19,29,0,9.91,1596143190
323,karratha,AU,-20.74,116.85,65.3,45,0,5.99,1596143096
324,upernavik,GL,72.79,-56.15,44.8,69,47,1.81,1596143132
325,hami,CN,42.8,93.45,72.16,37,0,12.53,1596143190
326,luebo,CD,-5.35,21.42,73.74,27,1,1.92,1596143190
327,linjiang,CN,41.81,126.91,67.3,88,100,2.8,1596143190
328,kalmunai,LK,7.42,81.82,80.42,73,97,4.43,1596143190
329,abapo,BO,-18.83,-63.47,68.94,24,0,6.82,1596143190
330,moose factory,CA,51.26,-80.61,73.4,64,75,5.82,1596143191
331,sur,OM,22.57,59.53,90.77,57,35,12.82,1596143191
332,mehamn,NO,71.04,27.85,51.8,87,75,9.17,1596143191
333,barentu,ER,15.11,37.59,72.19,84,100,2.06,1596143191
334,victoria,HK,22.29,114.16,84.0,70,53,10.0,1596143148
335,antalaha,MG,-14.9,50.28,68.2,86,3,5.73,1596143191
336,vardo,NO,70.37,31.11,51.8,93,75,10.29,1596142984
337,port hawkesbury,CA,45.62,-61.35,84.2,48,1,6.93,1596143191
338,point fortin,TT,10.18,-61.68,82.99,86,0,10.92,1596143191
339,kerrville,US,30.05,-99.14,91.4,43,40,14.99,1596142993
340,port shepstone,ZA,-30.74,30.45,61.39,79,51,6.53,1596143191
341,the valley,AI,18.22,-63.06,87.8,74,40,19.46,1596143045
342,rosarito,MX,32.33,-117.03,82.99,57,5,18.34,1596143192
343,bilma,NE,18.69,12.92,95.09,17,42,3.13,1596143192
344,husavik,IS,66.04,-17.34,53.6,76,32,10.29,1596143192
345,upata,VE,8.01,-62.4,84.99,79,34,7.0,1596143192
346,piranshahr,IR,36.7,45.14,67.32,70,0,6.13,1596143192
347,lambare,PY,-25.35,-57.61,71.6,26,75,4.7,1596143192
348,kazuno,JP,40.18,140.79,67.91,88,100,0.92,1596143192
349,sobolevo,RU,54.43,31.9,53.01,90,26,8.46,1596143192
350,laguna,US,38.42,-121.42,93.0,27,5,6.93,1596143193
351,bambous virieux,MU,-20.34,57.76,69.8,88,40,3.36,1596143193
352,ushtobe,KZ,45.25,77.98,72.3,27,100,20.11,1596143193
353,alihe,CN,50.57,123.72,61.48,91,36,1.32,1596143193
354,kalemie,CD,-5.95,29.19,72.81,59,11,3.96,1596143193
355,orlovskiy,RU,46.87,42.06,75.76,29,33,7.96,1596143193
356,phan thiet,VN,10.93,108.1,77.95,88,100,5.01,1596143193
357,sangar,RU,63.92,127.47,57.78,60,0,2.66,1596143193
358,huarmey,PE,-10.07,-78.15,66.47,67,2,10.49,1596143194
359,hirara,JP,24.8,125.28,83.97,82,95,15.73,1596143194
360,pickerington,US,39.88,-82.75,79.0,83,90,4.7,1596143194
361,vysokaya gora,RU,55.91,49.3,62.6,82,99,6.71,1596143194
362,riverbank,US,37.74,-120.94,91.99,22,1,10.29,1596143121
363,kieta,PG,-6.22,155.63,80.06,76,92,3.62,1596143194
364,koumac,NC,-20.57,164.28,73.54,85,40,3.91,1596143194
365,cockburn town,TC,21.46,-71.14,79.74,78,100,45.43,1596143021
366,azare,NG,11.68,10.19,74.55,84,39,14.99,1596143194
367,la serena,CL,-29.91,-71.25,66.2,48,25,5.82,1596143117
368,natal,BR,-5.79,-35.21,80.6,61,20,9.17,1596143092
369,isla mujeres,MX,21.23,-86.73,89.6,66,40,9.17,1596143194
370,palmer,US,42.16,-72.33,86.0,45,75,11.41,1596143185
371,leh,IN,34.17,77.58,60.22,44,97,0.85,1596143164
372,tiksi,RU,71.69,128.87,41.76,89,95,4.29,1596143195
373,lagoa,PT,39.05,-27.98,70.5,75,80,13.06,1596142983
374,saint-junien,FR,45.88,0.9,84.2,39,0,5.82,1596143164
375,saint-augustin,CA,51.23,-58.65,63.54,77,91,10.6,1596143195
376,lensk,RU,60.73,114.93,55.02,83,100,4.88,1596143195
377,urusha,RU,54.05,122.9,62.62,97,7,3.89,1596143195
378,port moresby,PG,-9.44,147.18,75.2,83,20,17.22,1596143195
379,beringovskiy,RU,63.05,179.32,50.18,90,100,11.7,1596143195
380,karpogory,RU,64.0,44.45,57.06,93,100,5.61,1596143195
381,awbari,LY,26.59,12.78,88.09,20,0,9.93,1596143196
382,namibe,AO,-15.2,12.15,63.95,87,41,2.91,1596143196
383,lotofaga,WS,-13.98,-171.86,75.0,94,17,8.01,1596143196
384,oranjemund,NA,-28.55,16.43,59.56,60,0,9.64,1596143196
385,chicla,PE,-11.71,-76.27,56.71,35,0,6.26,1596143196
386,kushiro,JP,42.98,144.37,63.72,90,0,2.42,1596143196
387,boddam,GB,57.47,-1.78,57.2,93,100,9.17,1596143196
388,saint-pierre,RE,-21.34,55.48,71.6,73,90,4.7,1596143197
389,pacifica,US,37.61,-122.49,70.0,63,20,17.22,1596143197
390,hastings,GB,50.86,0.57,66.0,70,0,1.01,1596142911
391,buritizeiro,BR,-17.35,-44.96,76.75,32,13,4.05,1596143185
392,senador jose porfirio,BR,-2.59,-51.95,84.45,60,58,0.4,1596143197
393,terrace,CA,54.52,-128.6,78.8,36,20,5.82,1596143034
394,west odessa,US,31.84,-102.5,100.0,23,1,11.41,1596143083
395,aksu,CN,41.12,80.26,75.54,21,66,4.76,1596143197
396,los llanos de aridane,ES,28.66,-17.92,73.4,69,75,14.99,1596143198
397,akyab,MM,20.15,92.9,81.34,84,99,6.17,1596143198
398,sokoto,NG,13.06,5.24,87.4,53,65,7.38,1596143198
399,meulaboh,ID,4.14,96.13,77.86,79,99,3.0,1596143198
400,rawson,AR,-43.3,-65.1,51.4,51,100,9.75,1596143198
401,mount vernon,US,40.91,-73.84,93.2,30,90,8.05,1596143198
402,hare bay,CA,48.85,-54.01,62.6,88,90,3.36,1596143198
403,plettenberg bay,ZA,-34.05,23.37,55.67,75,0,4.74,1596143198
404,lianyuan,CN,27.69,111.66,78.21,84,43,1.57,1596143198
405,hambantota,LK,6.12,81.12,79.61,82,100,16.08,1596143199
406,pyaozerskiy,RU,65.83,31.17,51.98,73,54,9.24,1596143199
407,margate,GB,51.38,1.39,64.99,67,1,1.01,1596143199
408,roros,NO,62.57,11.38,53.6,100,100,8.05,1596143199
409,chumikan,RU,54.72,135.31,54.0,96,100,18.14,1596143199
410,lahaina,US,20.88,-156.68,80.6,73,20,17.22,1596142763
411,abbeville,FR,50.1,1.83,70.0,57,0,7.49,1596143199
412,airai,TL,-8.93,125.41,52.93,68,6,3.69,1596143199
413,lodja,CD,-3.48,23.43,76.35,32,5,0.74,1596143199
414,cap malheureux,MU,-19.98,57.61,69.01,83,1,3.0,1596143200
415,poum,NC,-20.23,164.02,74.91,84,7,11.3,1596143200
416,madera,US,37.17,-119.83,102.99,20,0,1.01,1596143200
417,faya,SA,18.39,42.45,68.0,93,40,3.36,1596143200
418,solhan,TR,38.96,41.03,70.41,38,0,4.97,1596143200
419,lerwick,GB,60.15,-1.15,51.8,87,100,6.93,1596143200
420,cascas,PE,-7.48,-78.82,73.4,33,40,5.82,1596143200
421,sisimiut,GL,66.94,-53.67,48.15,69,0,4.76,1596143200
422,boguchany,RU,58.38,97.45,53.69,91,45,0.85,1596143200
423,grand gaube,MU,-20.01,57.66,69.01,83,1,3.0,1596143201
424,arlit,NE,18.74,7.39,99.9,16,15,5.7,1596143201
425,neftcala,AZ,39.37,49.25,74.44,62,49,2.71,1596143201
426,maneadero,MX,31.72,-116.57,87.01,34,11,8.01,1596143201
427,marzuq,YE,14.4,46.47,80.28,56,100,6.24,1596143201
428,maniitsoq,GL,65.42,-52.9,47.17,82,0,4.97,1596143201
429,rumoi,JP,43.93,141.64,64.72,85,17,5.06,1596143202
430,taloqan,AF,36.74,69.53,74.98,25,0,1.28,1596143202
431,north platte,US,41.12,-100.77,75.2,69,90,13.87,1596143202
432,mangrol,IN,21.12,70.12,82.99,84,99,11.45,1596143202
433,bani,DO,18.28,-70.33,86.0,79,75,8.05,1596143202
434,fengxian,CN,34.7,116.59,78.01,87,83,1.01,1596143202
435,ambilobe,MG,-13.2,49.05,68.81,86,28,2.48,1596143202
436,alexandria,EG,31.22,29.96,80.6,78,20,12.75,1596143203
437,port blair,IN,11.67,92.75,80.4,83,100,14.67,1596143203
438,boende,CD,-0.22,20.87,77.36,67,76,1.72,1596143203
439,san policarpo,PH,12.18,125.51,78.91,84,100,4.74,1596143203
440,mahoba,IN,25.28,79.87,86.36,67,100,5.61,1596143203
441,quatre cocos,MU,-20.21,57.76,69.8,88,40,3.36,1596143203
442,russell,US,32.35,-85.2,91.4,52,20,5.82,1596143203
443,mogzon,RU,51.74,111.96,57.74,95,100,2.86,1596143203
444,nsanje,MW,-16.92,35.26,65.12,65,0,2.3,1596143203
445,manaus,BR,-3.1,-60.02,93.2,43,31,3.36,1596143004
446,skjervoy,NO,70.03,20.97,62.6,59,0,16.11,1596143204
447,wufeng,CN,27.45,104.83,61.39,100,99,1.57,1596143204
448,petropavlovsk-kamchatskiy,RU,53.05,158.65,57.2,100,90,4.47,1596143204
449,berlevag,NO,70.86,29.09,50.0,93,75,6.93,1596143204
450,bedesa,ET,8.9,40.78,63.75,83,96,2.84,1596143204
451,bihar,RO,47.15,21.92,75.2,88,0,5.82,1596143204
452,hobyo,SO,5.35,48.53,78.4,80,35,24.43,1596143204
453,tanete,ID,-3.94,119.78,72.46,86,75,4.27,1596143204
454,omsukchan,RU,62.53,155.8,41.85,86,100,11.36,1596143204
455,tezu,IN,27.92,96.17,75.13,88,100,2.77,1596143204
456,mana,GF,5.66,-53.78,82.51,70,17,5.93,1596143205
457,peniche,PT,39.36,-9.38,66.99,85,44,8.01,1596142907
458,anadyr,RU,64.75,177.48,53.6,71,75,11.18,1596143205
459,alofi,NU,-19.06,-169.92,69.8,77,40,11.41,1596143205
460,serenje,ZM,-13.23,30.24,56.68,65,0,6.55,1596143205
461,goderich,CA,43.75,-81.72,75.0,74,5,10.74,1596143040
462,reconquista,AR,-29.15,-59.65,55.11,52,28,5.46,1596143205
463,ust-maya,RU,60.42,134.53,54.07,64,100,1.3,1596143205
464,batagay-alyta,RU,67.8,130.41,47.75,73,0,2.3,1596143205
465,eureka,US,40.8,-124.16,69.01,77,40,5.82,1596143205
466,vila velha,BR,-20.33,-40.29,73.4,83,40,13.87,1596142937
467,flagstaff,US,35.2,-111.65,93.99,11,1,9.17,1596142999
468,yendi,GH,9.44,-0.01,75.67,88,59,4.18,1596143206
469,hervey bay,AU,-25.3,152.85,55.0,81,0,5.99,1596143206
470,puerto penasco,MX,31.32,-113.53,89.01,78,1,11.01,1596143206
471,khuzhir,RU,53.19,107.34,56.43,90,100,5.5,1596143206
472,zapolyarnyy,RU,69.42,30.81,51.8,87,75,17.22,1596143206
473,villa bisono,DO,19.56,-70.88,77.0,94,90,11.41,1596143206
474,comodoro rivadavia,AR,-45.87,-67.5,42.8,87,100,2.37,1596143152
475,lambari,BR,-21.98,-45.35,60.49,81,11,4.45,1596143207
476,kibre mengist,ET,5.88,38.98,59.86,79,53,2.33,1596143207
477,khandyga,RU,62.67,135.6,58.28,46,0,5.97,1596143207
478,oistins,BB,13.07,-59.53,86.0,70,40,19.46,1596143207
479,sakakah,SA,29.97,40.21,104.0,12,66,4.7,1596143207
480,mata,PT,40.68,-7.46,70.0,66,0,5.41,1596143207
481,ayr,GB,55.46,-4.63,60.8,82,99,5.82,1596143207
482,conceicao do araguaia,BR,-8.26,-49.26,93.2,28,44,6.93,1596143207
483,constitucion,CL,-35.33,-72.42,53.65,76,100,4.72,1596143207
484,dunedin,NZ,-45.87,170.5,54.0,59,100,1.99,1596142988
485,dudinka,RU,69.41,86.18,59.0,67,100,11.18,1596143208
486,guarapari,BR,-20.67,-40.5,73.4,83,40,13.87,1596143208
487,toora-khem,RU,52.47,96.11,54.45,92,100,3.98,1596143208
488,columbus,US,39.96,-83.0,79.0,83,90,3.36,1596142631
489,varhaug,NO,58.61,5.65,54.0,99,100,4.0,1596143208
490,morant bay,JM,17.88,-76.41,93.2,59,20,9.17,1596143208
491,sao filipe,CV,14.9,-24.5,76.84,83,17,8.23,1596143208
492,linxia,CN,35.6,103.21,60.35,65,24,4.29,1596143209
493,yaan,NG,7.38,8.57,73.45,95,100,7.27,1596143209
494,nelidovo,RU,56.22,32.78,52.3,94,75,6.11,1596143209
495,waingapu,ID,-9.66,120.26,69.58,80,0,7.47,1596143209
496,santa cruz de la palma,ES,28.68,-17.76,73.4,69,75,14.99,1596143209
497,yokadouma,CM,3.52,15.05,69.1,94,100,1.92,1596143209
498,amazar,RU,53.86,120.88,63.09,92,29,2.21,1596143209
499,rocha,UY,-34.48,-54.33,45.18,80,0,6.82,1596143209
500,plaster rock,CA,46.91,-67.39,79.0,47,40,6.93,1596143210
501,rafaela,AR,-31.25,-61.49,61.0,20,2,4.0,1596143004
502,dabola,GN,10.75,-11.12,71.78,91,78,1.05,1596143210
503,prince george,CA,53.92,-122.75,84.0,50,1,10.29,1596143210
504,cosenza,IT,39.31,16.25,84.0,88,0,3.36,1596143210
505,zambezi,ZM,-13.54,23.1,61.99,43,0,5.3,1596142926
506,kapuskasing,CA,49.42,-82.43,68.0,68,75,8.05,1596143210
507,iquique,CL,-20.22,-70.14,62.6,63,19,17.22,1596142991
508,porto walter,BR,-8.27,-72.74,88.48,43,71,3.71,1596143210
509,pueblo bello,CO,8.2,-76.53,86.0,74,40,8.05,1596143210
510,singaparna,ID,-7.35,108.11,63.25,81,92,0.29,1596143211
511,waipawa,NZ,-41.41,175.52,51.8,71,100,10.29,1596143211
512,tual,ID,-5.67,132.75,78.21,81,99,25.41,1596143211
513,bosaso,SO,11.28,49.18,90.66,56,97,0.58,1596143211
514,aksarka,RU,66.56,67.8,48.29,89,0,6.08,1596143211
515,kupang,ID,-10.17,123.58,69.75,79,3,8.84,1596143211
516,balkhash,KZ,46.84,74.98,71.92,43,98,9.86,1596143211
517,wolgast,DE,54.05,13.77,55.99,76,27,10.63,1596143211
518,asau,RO,46.43,26.4,71.01,83,0,3.87,1596143211
519,salinopolis,BR,-0.61,-47.36,81.82,76,90,6.62,1596143211
520,srednekolymsk,RU,67.45,153.68,54.05,56,59,8.41,1596143212
521,mahibadhoo,MV,3.78,72.97,81.93,80,85,15.55,1596143212
522,cabras,IT,39.93,8.53,79.48,50,0,6.22,1596143212
523,tungor,RU,53.38,142.96,57.47,89,59,9.73,1596143212
524,botwood,CA,49.15,-55.35,68.0,78,87,3.06,1596143212
525,pangnirtung,CA,66.15,-65.71,55.4,93,90,1.72,1596143212
526,makakilo city,US,21.35,-158.09,84.2,51,40,13.87,1596143212
527,turukhansk,RU,65.82,87.98,59.92,78,100,15.35,1596143212
528,gold coast,AU,-28.0,153.43,59.0,67,75,8.05,1596143212
529,kahului,US,20.89,-156.47,80.6,65,40,21.92,1596142927
530,leshukonskoye,RU,64.9,45.76,55.76,60,97,9.82,1596143213
531,chota,PE,-6.55,-78.65,73.4,33,40,5.82,1596143213
532,pontes e lacerda,BR,-15.23,-59.34,86.52,29,0,6.04,1596143213
533,siderno,IT,38.28,16.3,81.0,97,0,11.99,1596143214
534,tura,IN,25.52,90.22,74.16,95,100,4.45,1596143214
535,virginia beach,US,36.85,-75.98,93.99,49,75,8.05,1596143031
536,ingham,US,42.6,-84.38,78.8,47,40,6.93,1596143214
537,chicama,PE,-7.84,-79.15,71.01,55,3,9.33,1596143214
538,mukhtolovo,RU,55.46,43.2,57.38,89,67,6.13,1596143215
539,maragogi,BR,-9.01,-35.22,73.92,81,22,12.33,1596143215
540,klaksvik,FO,62.23,-6.59,50.0,93,100,11.41,1596143215
541,udachnyy,RU,66.42,112.4,51.8,71,0,4.47,1596142941
542,kriel,ZA,-26.27,29.23,48.99,52,0,2.66,1596143215
543,ayan,RU,56.45,138.17,54.97,90,100,5.95,1596143215
544,aswan,EG,24.09,32.91,99.28,26,38,9.22,1596143215
545,kapoeta,SS,4.77,33.59,76.82,69,70,2.86,1596143215
546,wagar,SD,16.15,36.2,85.51,57,98,9.28,1596143215
547,vvedenskoye,RU,55.48,65.08,61.63,95,100,5.19,1596143215
548,camana,PE,-16.62,-72.71,65.32,62,3,9.01,1596143215
549,dukat,RU,62.55,155.55,39.51,90,100,12.01,1596143216
550,areka,ET,7.07,37.7,60.39,87,96,1.43,1596143216
551,richards bay,ZA,-28.78,32.04,62.2,72,0,6.96,1596143216
552,kyren,RU,51.68,102.14,56.59,75,0,0.13,1596143216
553,ondjiva,AO,-17.07,15.73,60.04,32,0,7.72,1596143216
554,key west,US,24.56,-81.78,91.4,63,20,14.99,1596143108
555,vila do maio,CV,15.13,-23.22,78.8,74,75,13.87,1596143216
556,kuzhenkino,RU,57.76,33.95,53.06,95,93,7.07,1596143216
557,praya,CV,14.92,-23.51,78.8,74,75,13.87,1596143216
558,abu kamal,SY,34.45,40.92,93.27,15,0,7.78,1596143217
559,touros,BR,-5.2,-35.46,80.6,61,20,9.17,1596143217
560,north las vegas,US,36.2,-115.12,109.99,6,1,9.17,1596143217
561,lazaro cardenas,MX,17.96,-102.2,86.86,67,85,8.48,1596143217
562,namatanai,PG,-3.67,152.43,80.69,82,100,11.23,1596143217
563,alyangula,AU,-13.85,136.42,51.8,93,0,13.85,1596143217
564,tuatapere,NZ,-46.13,167.68,49.03,92,100,3.56,1596143217
565,aykhal,RU,66.0,111.5,51.8,71,0,4.47,1596143217
566,erzin,TR,36.96,36.2,82.0,84,0,1.45,1596143217
567,chumphon,TH,10.33,98.83,74.88,95,99,2.93,1596143217
568,naliya,IN,23.27,68.83,85.05,77,100,8.39,1596143218
569,nha trang,VN,12.25,109.18,82.4,88,75,3.36,1596143218
570,louis trichardt,ZA,-23.04,29.9,55.96,39,0,4.07,1596143218
571,durban,ZA,-29.86,31.03,68.0,77,75,5.82,1596142998
572,pacific grove,US,36.62,-121.92,73.0,64,20,9.17,1596143218
